[
  {
    "name": "종로구",
    "lat": 37.594313,
    "lng": 126.977667
  },
  {
    "name": "중구",
    "lat": 37.560048,
    "lng": 126.99589
  },
  {
    "name": "용산구",
    "lat": 37.53125,
    "lng": 126.980318
  },
  {
    "name": "성동구",
    "lat": 37.551131,
    "lng": 127.04106
  },
  {
    "name": "광진구",
    "lat": 37.546522,
    "lng": 127.086548
  },
  {
    "name": "동대문구",
    "lat": 37.582046,
    "lng": 127.055272
  },
  {
    "name": "중랑구",
    "lat": 37.597951,
    "lng": 127.093047
  },
  {
    "name": "성북구",
    "lat": 37.605851,
    "lng": 127.017907
  },
  {
    "name": "강북구",
    "lat": 37.64358,
    "lng": 127.011101
  },
  {
    "name": "도봉구",
    "lat": 37.669135,
    "lng": 127.032402
  },
  {
    "name": "노원구",
    "lat": 37.652079,
    "lng": 127.075244
  },
  {
    "name": "은평구",
    "lat": 37.619952,
    "lng": 126.928922
  },
  {
    "name": "서대문구",
    "lat": 37.577461,
    "lng": 126.93902
  },
  {
    "name": "마포구",
    "lat": 37.559397,
    "lng": 126.908188
  },
  {
    "name": "양천구",
    "lat": 37.524693,
    "lng": 126.855537
  },
  {
    "name": "강서구",
    "lat": 37.561316,
    "lng": 126.822731
  },
  {
    "name": "구로구",
    "lat": 37.496001,
    "lng": 126.859877
  },
  {
    "name": "금천구",
    "lat": 37.460417,
    "lng": 126.901236
  },
  {
    "name": "영등포구",
    "lat": 37.522324,
    "lng": 126.910318
  },
  {
    "name": "동작구",
    "lat": 37.498928,
    "lng": 126.951412
  },
  {
    "name": "관악구",
    "lat": 37.466999,
    "lng": 126.946001
  },
  {
    "name": "서초구",
    "lat": 37.473417,
    "lng": 127.031536
  },
  {
    "name": "강남구",
    "lat": 37.497021,
    "lng": 127.06288
  },
  {
    "name": "송파구",
    "lat": 37.505117,
    "lng": 127.115285
  },
  {
    "name": "강동구",
    "lat": 37.548759,
    "lng": 127.144079
  }
]